%  GPST                      x-ecef(m)      y-ecef(m)      z-ecef(m)   Q  ns   sdx(m)   sdy(m)   sdz(m)  sdxy(m)  sdyz(m)  sdzx(m) age(s)  ratio  sigma
2019/12/01 00:00:00.000  -2267750.3734   5009155.4960   3221295.2577   5   7   0.0000   0.0000   0.0000   0.0000   0.0000   0.0000   0.00    0.0   0.30
2019/12/01 00:00:30.000  -2267750.4083   5009155.4802   3221295.8175   5   7   0.0000   0.0000   0.0000   0.0000   0.0000   0.0000   0.00    0.0   0.30
2019/12/01 00:01:00.000  -2267750.6088   5009156.0352   3221295.8773   5   7   0.0000   0.0000   0.0000   0.0000   0.0000   0.0000   0.00    0.0   0.24
2019/12/01 00:01:30.000  -2267751.2041   5009156.3581   3221295.8335   5   7   0.0000   0.0000   0.0000   0.0000   0.0000   0.0000   0.00    0.0   0.23
2019/12/01 00:02:00.000  -2267750.7147   5009156.1689   3221295.9579   5   7   0.0000   0.0000   0.0000   0.0000   0.0000   0.0000   0.00    0.0   0.31
2019/12/01 00:02:30.000  -2267750.5607   5009155.3492   3221295.5808   5   7   0.0000   0.0000   0.0000   0.0000   0.0000   0.0000   0.00    0.0   0.23
2019/12/01 00:03:00.000  -2267750.6255   5009156.3857   3221295.8585   5   7   0.0000   0.0000   0.0000   0.0000   0.0000   0.0000   0.00    0.0   0.38
2019/12/01 00:03:30.000  -2267751.6520   5009156.5417   3221296.1333   5   7   0.0000   0.0000   0.0000   0.0000   0.0000   0.0000   0.00    0.0   0.23
2019/12/01 00:04:00.000  -2267750.9279   5009156.0015   3221295.5179   5   7   0.0000   0.0000   0.0000   0.0000   0.0000   0.0000   0.00    0.0   0.22
2019/12/01 00:04:30.000  -2267750.8234   5009156.6464   3221296.2485   5   7   0.0000   0.0000   0.0000   0.0000   0.0000   0.0000   0.00    0.0   0.32
2019/12/01 00:05:00.000  -2267750.5721   5009156.5403   3221295.5805   5   8   0.0000   0.0000   0.0000   0.0000   0.0000   0.0000   0.00    0.0   0.25
2019/12/01 00:05:30.000  -2267751.1357   5009156.5892   3221296.1853   5   8   0.0000   0.0000   0.0000   0.0000   0.0000   0.0000   0.00    0.0   0.17
2019/12/01 00:06:00.000  -2267750.6692   5009156.3405   3221295.6795   5   8   0.0000   0.0000   0.0000   0.0000   0.0000   0.0000   0.00    0.0   0.27
2019/12/01 00:06:30.000  -2267751.0495   5009157.0095   3221295.5471   5   8   0.0000   0.0000   0.0000   0.0000   0.0000   0.0000   0.00    0.0   0.19
2019/12/01 00:07:00.000  -2267750.1462   5009155.4390   3221294.8382   5   8   0.0000   0.0000   0.0000   0.0000   0.0000   0.0000   0.00    0.0   0.38
2019/12/01 00:07:30.000  -2267751.4326   5009157.0605   3221296.2823   5   8   0.0000   0.0000   0.0000   0.0000   0.0000   0.0000   0.00    0.0   0.18
2019/12/01 00:08:00.000  -2267750.7828   5009155.2756   3221295.8870   5   8   0.0000   0.0000   0.0000   0.0000   0.0000   0.0000   0.00    0.0   0.17
2019/12/01 00:08:30.000  -2267750.8343   5009156.5005   3221296.0200   5   8   0.0000   0.0000   0.0000   0.0000   0.0000   0.0000   0.00    0.0   0.23
2019/12/01 00:09:00.000  -2267750.6529   5009156.3997   3221295.6054   5   8   0.0000   0.0000   0.0000   0.0000   0.0000   0.0000   0.00    0.0   0.22
2019/12/01 00:09:30.000  -2267750.3188   5009156.3183   3221295.4177   5   8   0.0000   0.0000   0.0000   0.0000   0.0000   0.0000   0.00    0.0   0.16
2019/12/01 00:10:00.000  -2267750.9331   5009156.6992   3221295.8918   5   7   0.0000   0.0000   0.0000   0.0000   0.0000   0.0000   0.00    0.0   0.20
2019/12/01 00:10:30.000  -2267750.9141   5009155.8189   3221295.9932   5   8   0.0000   0.0000   0.0000   0.0000   0.0000   0.0000   0.00    0.0   0.27
2019/12/01 00:11:00.000  -2267750.6422   5009155.0867   3221295.7981   5   7   0.0000   0.0000   0.0000   0.0000   0.0000   0.0000   0.00    0.0   0.25
2019/12/01 00:11:30.000  -2267751.2589   5009156.7560   3221295.8978   5   8   0.0000   0.0000   0.0000   0.0000   0.0000   0.0000   0.00    0.0   0.12
2019/12/01 00:12:00.000  -2267751.1270   5009156.8840   3221296.1970   5   7   0.0000   0.0000   0.0000   0.0000   0.0000   0.0000   0.00    0.0   0.24
2019/12/01 00:12:30.000  -2267750.8934   5009156.6942   3221296.4121   5   7   0.0000   0.0000   0.0000   0.0000   0.0000   0.0000   0.00    0.0   0.23
2019/12/01 00:13:00.000  -2267751.2329   5009155.5594   3221295.7869   5   7   0.0000   0.0000   0.0000   0.0000   0.0000   0.0000   0.00    0.0   0.16
2019/12/01 00:13:30.000  -2267751.4464   5009156.7478   3221296.0204   5   7   0.0000   0.0000   0.0000   0.0000   0.0000   0.0000   0.00    0.0   0.18
2019/12/01 00:14:00.000  -2267750.9011   5009156.0812   3221296.1240   5   7   0.0000   0.0000   0.0000   0.0000   0.0000   0.0000   0.00    0.0   0.15
2019/12/01 00:14:30.000  -2267751.6513   5009157.2415   3221296.1662   5   7   0.0000   0.0000   0.0000   0.0000   0.0000   0.0000   0.00    0.0   0.16
2019/12/01 00:15:00.000  -2267751.5533   5009156.8991   3221296.1957   5   7   0.0000   0.0000   0.0000   0.0000   0.0000   0.0000   0.00    0.0   0.13
2019/12/01 00:15:30.000  -2267751.2526   5009156.3981   3221295.9488   5   7   0.0000   0.0000   0.0000   0.0000   0.0000   0.0000   0.00    0.0   0.19
2019/12/01 00:16:00.000  -2267751.2894   5009155.3247   3221296.0968   5   7   0.0000   0.0000   0.0000   0.0000   0.0000   0.0000   0.00    0.0   0.28
2019/12/01 00:16:30.000  -2267751.4921   5009156.6484   3221296.5134   5   7   0.0000   0.0000   0.0000   0.0000   0.0000   0.0000   0.00    0.0   0.19
2019/12/01 00:17:00.000  -2267750.5974   5009156.5474   3221296.1908   5   7   0.0000   0.0000   0.0000   0.0000   0.0000   0.0000   0.00    0.0   0.24
2019/12/01 00:17:30.000  -2267751.2605   5009155.1101   3221295.8720   5   7   0.0000   0.0000   0.0000   0.0000   0.0000   0.0000   0.00    0.0   0.25
2019/12/01 00:18:00.000  -2267751.2879   5009156.8394   3221296.0771   5   7   0.0000   0.0000   0.0000   0.0000   0.0000   0.0000   0.00    0.0   0.11
2019/12/01 00:18:30.000  -2267751.4728   5009157.4240   3221296.5025   5   7   0.0000   0.0000   0.0000   0.0000   0.0000   0.0000   0.00    0.0   0.21
2019/12/01 00:19:00.000  -2267751.1407   5009156.4671   3221296.1639   5   7   0.0000   0.0000   0.0000   0.0000   0.0000   0.0000   0.00    0.0   0.17
2019/12/01 00:19:30.000  -2267751.4336   5009156.9414   3221296.2315   5   7   0.0000   0.0000   0.0000   0.0000   0.0000   0.0000   0.00    0.0   0.12
2019/12/01 00:20:00.000  -2267751.4979   5009156.6045   3221296.1525   5   7   0.0000   0.0000   0.0000   0.0000   0.0000   0.0000   0.00    0.0   0.15
2019/12/01 00:20:30.000  -2267751.6895   5009157.8353   3221296.1059   5   7   0.0000   0.0000   0.0000   0.0000   0.0000   0.0000   0.00    0.0   0.18
2019/12/01 00:21:00.000  -2267751.4292   5009156.4116   3221296.1112   5   7   0.0000   0.0000   0.0000   0.0000   0.0000   0.0000   0.00    0.0   0.04
2019/12/01 00:21:30.000  -2267751.2114   5009155.2111   3221295.8648   5   7   0.0000   0.0000   0.0000   0.0000   0.0000   0.0000   0.00    0.0   0.20
2019/12/01 00:22:00.000  -2267751.0351   5009156.4094   3221296.0066   5   7   0.0000   0.0000   0.0000   0.0000   0.0000   0.0000   0.00    0.0   0.23
2019/12/01 00:22:30.000  -2267751.0035   5009156.1670   3221296.2119   5   7   0.0000   0.0000   0.0000   0.0000   0.0000   0.0000   0.00    0.0   0.23
2019/12/01 00:23:00.000  -2267751.3540   5009156.0978   3221296.0632   5   7   0.0000   0.0000   0.0000   0.0000   0.0000   0.0000   0.00    0.0   0.21
2019/12/01 00:23:30.000  -2267751.2967   5009155.6488   3221296.2587   5   7   0.0000   0.0000   0.0000   0.0000   0.0000   0.0000   0.00    0.0   0.25
2019/12/01 00:24:00.000  -2267751.5563   5009157.2500   3221296.3393   5   7   0.0000   0.0000   0.0000   0.0000   0.0000   0.0000   0.00    0.0   0.16
2019/12/01 00:24:30.000  -2267751.5441   5009156.3158   3221295.9452   5   7   0.0000   0.0000   0.0000   0.0000   0.0000   0.0000   0.00    0.0   0.15
2019/12/01 00:25:00.000  -2267751.1389   5009155.7121   3221295.9713   5   7   0.0000   0.0000   0.0000   0.0000   0.0000   0.0000   0.00    0.0   0.21
2019/12/01 00:25:30.000  -2267751.6175   5009157.2248   3221296.3646   5   7   0.0000   0.0000   0.0000   0.0000   0.0000   0.0000   0.00    0.0   0.10
2019/12/01 00:26:00.000  -2267751.2852   5009156.1701   3221296.1721   5   7   0.0000   0.0000   0.0000   0.0000   0.0000   0.0000   0.00    0.0   0.14
2019/12/01 00:26:30.000  -2267751.9328   5009156.5018   3221296.2396   5   7   0.0000   0.0000   0.0000   0.0000   0.0000   0.0000   0.00    0.0   0.23
2019/12/01 00:27:00.000  -2267751.6633   5009157.2286   3221296.1982   5   7   0.0000   0.0000   0.0000   0.0000   0.0000   0.0000   0.00    0.0   0.15
2019/12/01 00:27:30.000  -2267751.7055   5009156.6191   3221296.3829   5   7   0.0000   0.0000   0.0000   0.0000   0.0000   0.0000   0.00    0.0   0.25
2019/12/01 00:28:00.000  -2267751.2189   5009156.6869   3221296.4681   5   7   0.0000   0.0000   0.0000   0.0000   0.0000   0.0000   0.00    0.0   0.25
2019/12/01 00:28:30.000  -2267750.2308   5009155.0916   3221296.0981   5   7   0.0000   0.0000   0.0000   0.0000   0.0000   0.0000   0.00    0.0   0.32
2019/12/01 00:29:00.000  -2267750.5757   5009156.5444   3221296.3611   5   7   0.0000   0.0000   0.0000   0.0000   0.0000   0.0000   0.00    0.0   0.23
2019/12/01 00:29:30.000  -2267750.5400   5009156.2742   3221296.0948   5   7   0.0000   0.0000   0.0000   0.0000   0.0000   0.0000   0.00    0.0   0.27
2019/12/01 00:30:00.000  -2267751.5227   5009156.9376   3221296.1580   5   7   0.0000   0.0000   0.0000   0.0000   0.0000   0.0000   0.00    0.0   0.18
2019/12/01 00:30:30.000  -2267751.0360   5009156.0766   3221295.9419   5   7   0.0000   0.0000   0.0000   0.0000   0.0000   0.0000   0.00    0.0   0.28
2019/12/01 00:31:00.000  -2267751.1438   5009156.2453   3221296.1002   5   7   0.0000   0.0000   0.0000   0.0000   0.0000   0.0000   0.00    0.0   0.21
2019/12/01 00:31:30.000  -2267750.9228   5009156.0361   3221296.1669   5   7   0.0000   0.0000   0.0000   0.0000   0.0000   0.0000   0.00    0.0   0.18
2019/12/01 00:32:00.000  -2267751.4369   5009156.9570   3221296.3214   5   7   0.0000   0.0000   0.0000   0.0000   0.0000   0.0000   0.00    0.0   0.17
2019/12/01 00:32:30.000  -2267751.7087   5009156.7818   3221296.2584   5   7   0.0000   0.0000   0.0000   0.0000   0.0000   0.0000   0.00    0.0   0.13
2019/12/01 00:33:00.000  -2267751.5769   5009156.9670   3221296.1668   5   7   0.0000   0.0000   0.0000   0.0000   0.0000   0.0000   0.00    0.0   0.16
2019/12/01 00:33:30.000  -2267751.4901   5009157.0093   3221296.1451   5   7   0.0000   0.0000   0.0000   0.0000   0.0000   0.0000   0.00    0.0   0.18
2019/12/01 00:34:00.000  -2267751.4325   5009156.0216   3221296.1698   5   7   0.0000   0.0000   0.0000   0.0000   0.0000   0.0000   0.00    0.0   0.28
2019/12/01 00:34:30.000  -2267751.2746   5009156.8090   3221296.4307   5   7   0.0000   0.0000   0.0000   0.0000   0.0000   0.0000   0.00    0.0   0.20
2019/12/01 00:35:00.000  -2267751.2896   5009156.2393   3221296.3372   5   7   0.0000   0.0000   0.0000   0.0000   0.0000   0.0000   0.00    0.0   0.18
2019/12/01 00:35:30.000  -2267751.5762   5009156.8556   3221296.6565   5   7   0.0000   0.0000   0.0000   0.0000   0.0000   0.0000   0.00    0.0   0.19
2019/12/01 00:36:00.000  -2267751.3669   5009156.8536   3221296.1318   5   7   0.0000   0.0000   0.0000   0.0000   0.0000   0.0000   0.00    0.0   0.22
2019/12/01 00:36:30.000  -2267751.7144   5009157.5949   3221296.6898   5   7   0.0000   0.0000   0.0000   0.0000   0.0000   0.0000   0.00    0.0   0.28
2019/12/01 00:37:00.000  -2267751.4723   5009156.6917   3221296.1322   5   7   0.0000   0.0000   0.0000   0.0000   0.0000   0.0000   0.00    0.0   0.26
2019/12/01 00:37:30.000  -2267751.3363   5009156.2188   3221296.6928   5   7   0.0000   0.0000   0.0000   0.0000   0.0000   0.0000   0.00    0.0   0.25
2019/12/01 00:38:00.000  -2267750.7152   5009156.5922   3221296.3742   5   7   0.0000   0.0000   0.0000   0.0000   0.0000   0.0000   0.00    0.0   0.30
2019/12/01 00:38:30.000  -2267751.2804   5009156.4409   3221295.9516   5   7   0.0000   0.0000   0.0000   0.0000   0.0000   0.0000   0.00    0.0   0.17
2019/12/01 00:39:00.000  -2267751.0613   5009156.2935   3221296.1420   5   7   0.0000   0.0000   0.0000   0.0000   0.0000   0.0000   0.00    0.0   0.24
2019/12/01 00:39:30.000  -2267751.1329   5009156.1958   3221296.0173   5   7   0.0000   0.0000   0.0000   0.0000   0.0000   0.0000   0.00    0.0   0.20
2019/12/01 00:40:00.000  -2267751.5095   5009156.7879   3221296.2083   5   7   0.0000   0.0000   0.0000   0.0000   0.0000   0.0000   0.00    0.0   0.16
2019/12/01 00:40:30.000  -2267751.2641   5009156.1299   3221296.5492   5   7   0.0000   0.0000   0.0000   0.0000   0.0000   0.0000   0.00    0.0   0.33
2019/12/01 00:41:00.000  -2267751.8616   5009156.4530   3221296.1457   5   7   0.0000   0.0000   0.0000   0.0000   0.0000   0.0000   0.00    0.0   0.24
2019/12/01 00:41:30.000  -2267751.4529   5009156.4478   3221296.2582   5   7   0.0000   0.0000   0.0000   0.0000   0.0000   0.0000   0.00    0.0   0.13
2019/12/01 00:42:00.000  -2267751.4924   5009156.4397   3221296.5222   5   7   0.0000   0.0000   0.0000   0.0000   0.0000   0.0000   0.00    0.0   0.22
2019/12/01 00:42:30.000  -2267751.4705   5009157.2048   3221296.8466   5   7   0.0000   0.0000   0.0000   0.0000   0.0000   0.0000   0.00    0.0   0.16
2019/12/01 00:43:00.000  -2267751.3465   5009156.8669   3221296.4092   5   7   0.0000   0.0000   0.0000   0.0000   0.0000   0.0000   0.00    0.0   0.10
2019/12/01 00:43:30.000  -2267751.7924   5009156.5805   3221296.6716   5   7   0.0000   0.0000   0.0000   0.0000   0.0000   0.0000   0.00    0.0   0.19
2019/12/01 00:44:00.000  -2267751.5408   5009156.5607   3221296.2084   5   7   0.0000   0.0000   0.0000   0.0000   0.0000   0.0000   0.00    0.0   0.08
2019/12/01 00:44:30.000  -2267751.0706   5009156.4590   3221296.3141   5   7   0.0000   0.0000   0.0000   0.0000   0.0000   0.0000   0.00    0.0   0.26
2019/12/01 00:45:00.000  -2267751.4909   5009156.7993   3221296.0915   5   7   0.0000   0.0000   0.0000   0.0000   0.0000   0.0000   0.00    0.0   0.15
2019/12/01 00:45:30.000  -2267751.7844   5009156.9745   3221296.2995   5   7   0.0000   0.0000   0.0000   0.0000   0.0000   0.0000   0.00    0.0   0.14
2019/12/01 00:46:00.000  -2267751.5135   5009156.4076   3221296.4357   5   7   0.0000   0.0000   0.0000   0.0000   0.0000   0.0000   0.00    0.0   0.15
2019/12/01 00:46:30.000  -2267751.7387   5009156.6163   3221296.5349   5   7   0.0000   0.0000   0.0000   0.0000   0.0000   0.0000   0.00    0.0   0.28
2019/12/01 00:47:00.000  -2267751.2320   5009156.8451   3221296.4633   5   7   0.0000   0.0000   0.0000   0.0000   0.0000   0.0000   0.00    0.0   0.14
2019/12/01 00:47:30.000  -2267751.8718   5009156.8840   3221296.7392   5   7   0.0000   0.0000   0.0000   0.0000   0.0000   0.0000   0.00    0.0   0.24
2019/12/01 00:48:00.000  -2267751.4604   5009156.9848   3221296.0771   5   7   0.0000   0.0000   0.0000   0.0000   0.0000   0.0000   0.00    0.0   0.17
2019/12/01 00:48:30.000  -2267751.7316   5009156.7535   3221296.3974   5   7   0.0000   0.0000   0.0000   0.0000   0.0000   0.0000   0.00    0.0   0.24
2019/12/01 00:49:00.000  -2267751.7930   5009157.1220   3221296.7284   5   7   0.0000   0.0000   0.0000   0.0000   0.0000   0.0000   0.00    0.0   0.17
2019/12/01 00:49:30.000  -2267751.9053   5009157.1034   3221296.3369   5   7   0.0000   0.0000   0.0000   0.0000   0.0000   0.0000   0.00    0.0   0.13
2019/12/01 00:50:00.000  -2267751.3399   5009156.1993   3221296.1500   5   7   0.0000   0.0000   0.0000   0.0000   0.0000   0.0000   0.00    0.0   0.18
2019/12/01 00:50:30.000  -2267751.7837   5009156.9876   3221296.0439   5   7   0.0000   0.0000   0.0000   0.0000   0.0000   0.0000   0.00    0.0   0.26
2019/12/01 00:51:00.000  -2267751.8943   5009157.6753   3221296.3351   5   7   0.0000   0.0000   0.0000   0.0000   0.0000   0.0000   0.00    0.0   0.07
2019/12/01 00:51:30.000  -2267751.7535   5009157.6698   3221296.6414   5   7   0.0000   0.0000   0.0000   0.0000   0.0000   0.0000   0.00    0.0   0.11
2019/12/01 00:52:00.000  -2267751.2946   5009157.2357   3221296.5684   5   7   0.0000   0.0000   0.0000   0.0000   0.0000   0.0000   0.00    0.0   0.14
2019/12/01 00:52:30.000  -2267752.1579   5009156.8654   3221296.4856   5   7   0.0000   0.0000   0.0000   0.0000   0.0000   0.0000   0.00    0.0   0.35
2019/12/01 00:53:00.000  -2267751.5271   5009156.3221   3221296.0277   5   7   0.0000   0.0000   0.0000   0.0000   0.0000   0.0000   0.00    0.0   0.22
2019/12/01 00:53:30.000  -2267751.6572   5009157.2441   3221296.5515   5   7   0.0000   0.0000   0.0000   0.0000   0.0000   0.0000   0.00    0.0   0.19
2019/12/01 00:54:00.000  -2267751.3889   5009157.0477   3221296.4631   5   7   0.0000   0.0000   0.0000   0.0000   0.0000   0.0000   0.00    0.0   0.16
2019/12/01 00:54:30.000  -2267751.2475   5009156.2744   3221296.3844   5   7   0.0000   0.0000   0.0000   0.0000   0.0000   0.0000   0.00    0.0   0.28
2019/12/01 00:55:00.000  -2267751.7396   5009156.4885   3221296.1224   5   7   0.0000   0.0000   0.0000   0.0000   0.0000   0.0000   0.00    0.0   0.21
2019/12/01 00:55:30.000  -2267751.5945   5009157.5055   3221297.0872   5   7   0.0000   0.0000   0.0000   0.0000   0.0000   0.0000   0.00    0.0   0.31
2019/12/01 00:56:00.000  -2267751.6801   5009157.0493   3221296.4822   5   7   0.0000   0.0000   0.0000   0.0000   0.0000   0.0000   0.00    0.0   0.20
2019/12/01 00:56:30.000  -2267751.9613   5009157.9265   3221297.5270   5   7   0.0000   0.0000   0.0000   0.0000   0.0000   0.0000   0.00    0.0   0.31
2019/12/01 00:57:00.000  -2267751.4564   5009156.6287   3221296.5284   5   7   0.0000   0.0000   0.0000   0.0000   0.0000   0.0000   0.00    0.0   0.30
2019/12/01 00:57:30.000  -2267751.0201   5009155.8401   3221295.4142   5   7   0.0000   0.0000   0.0000   0.0000   0.0000   0.0000   0.00    0.0   0.18
2019/12/01 00:58:00.000  -2267752.0599   5009157.5067   3221296.9479   5   7   0.0000   0.0000   0.0000   0.0000   0.0000   0.0000   0.00    0.0   0.28
2019/12/01 00:58:30.000  -2267752.2572   5009159.1505   3221298.7423   5   7   0.0000   0.0000   0.0000   0.0000   0.0000   0.0000   0.00    0.0   0.50
2019/12/01 00:59:00.000  -2267751.0118   5009155.8253   3221295.6032   5   6   0.0000   0.0000   0.0000   0.0000   0.0000   0.0000   0.00    0.0   0.14
2019/12/01 00:59:30.000  -2267751.7590   5009156.6721   3221296.1651   5   6   0.0000   0.0000   0.0000   0.0000   0.0000   0.0000   0.00    0.0   0.12
2019/12/01 01:00:00.000  -2267751.1834   5009156.6609   3221296.0719   5   6   0.0000   0.0000   0.0000   0.0000   0.0000   0.0000   0.00    0.0   0.08
2019/12/01 01:00:30.000  -2267751.1081   5009156.1525   3221295.7073   5   6   0.0000   0.0000   0.0000   0.0000   0.0000   0.0000   0.00    0.0   0.11
2019/12/01 01:01:00.000  -2267751.5519   5009156.4135   3221295.7714   5   6   0.0000   0.0000   0.0000   0.0000   0.0000   0.0000   0.00    0.0   0.05
2019/12/01 01:01:30.000  -2267750.6374   5009155.3116   3221295.2502   5   6   0.0000   0.0000   0.0000   0.0000   0.0000   0.0000   0.00    0.0   0.09
2019/12/01 01:02:00.000  -2267750.5765   5009155.4454   3221295.6414   5   6   0.0000   0.0000   0.0000   0.0000   0.0000   0.0000   0.00    0.0   0.15
2019/12/01 01:02:30.000  -2267750.5031   5009155.2272   3221295.4493   5   6   0.0000   0.0000   0.0000   0.0000   0.0000   0.0000   0.00    0.0   0.07
2019/12/01 01:03:00.000  -2267750.9320   5009155.9021   3221295.2647   5   6   0.0000   0.0000   0.0000   0.0000   0.0000   0.0000   0.00    0.0   0.07
2019/12/01 01:03:30.000  -2267750.7964   5009154.1856   3221294.5372   5   6   0.0000   0.0000   0.0000   0.0000   0.0000   0.0000   0.00    0.0   0.13
2019/12/01 01:04:00.000  -2267751.2360   5009156.3884   3221295.8289   5   6   0.0000   0.0000   0.0000   0.0000   0.0000   0.0000   0.00    0.0   0.10
2019/12/01 01:04:30.000  -2267751.0160   5009155.8380   3221295.8594   5   6   0.0000   0.0000   0.0000   0.0000   0.0000   0.0000   0.00    0.0   0.07
2019/12/01 01:05:00.000  -2267750.7351   5009154.8878   3221295.3313   5   6   0.0000   0.0000   0.0000   0.0000   0.0000   0.0000   0.00    0.0   0.15
2019/12/01 01:05:30.000  -2267751.3442   5009156.2013   3221295.4857   5   6   0.0000   0.0000   0.0000   0.0000   0.0000   0.0000   0.00    0.0   0.02
2019/12/01 01:06:00.000  -2267750.8160   5009155.0231   3221295.2809   5   6   0.0000   0.0000   0.0000   0.0000   0.0000   0.0000   0.00    0.0   0.14
2019/12/01 01:06:30.000  -2267750.8896   5009155.5234   3221295.3275   5   6   0.0000   0.0000   0.0000   0.0000   0.0000   0.0000   0.00    0.0   0.09
2019/12/01 01:07:00.000  -2267751.3309   5009156.2277   3221295.1453   5   6   0.0000   0.0000   0.0000   0.0000   0.0000   0.0000   0.00    0.0   0.07
2019/12/01 01:07:30.000  -2267750.5306   5009154.3637   3221295.0596   5   6   0.0000   0.0000   0.0000   0.0000   0.0000   0.0000   0.00    0.0   0.15
2019/12/01 01:08:00.000  -2267751.2958   5009155.8947   3221295.6980   5   6   0.0000   0.0000   0.0000   0.0000   0.0000   0.0000   0.00    0.0   0.04
2019/12/01 01:08:30.000  -2267751.0829   5009155.9524   3221295.3700   5   6   0.0000   0.0000   0.0000   0.0000   0.0000   0.0000   0.00    0.0   0.11
2019/12/01 01:09:00.000  -2267750.6446   5009154.8271   3221295.0459   5   6   0.0000   0.0000   0.0000   0.0000   0.0000   0.0000   0.00    0.0   0.10
2019/12/01 01:09:30.000  -2267751.1779   5009156.2579   3221295.4982   5   6   0.0000   0.0000   0.0000   0.0000   0.0000   0.0000   0.00    0.0   0.04
2019/12/01 01:10:00.000  -2267750.9530   5009155.5198   3221295.4114   5   6   0.0000   0.0000   0.0000   0.0000   0.0000   0.0000   0.00    0.0   0.09
2019/12/01 01:10:30.000  -2267751.8363   5009156.6724   3221296.0281   5   6   0.0000   0.0000   0.0000   0.0000   0.0000   0.0000   0.00    0.0   0.06
2019/12/01 01:11:00.000  -2267751.2839   5009155.8064   3221295.3468   5   6   0.0000   0.0000   0.0000   0.0000   0.0000   0.0000   0.00    0.0   0.03
2019/12/01 01:11:30.000  -2267751.6859   5009156.6699   3221296.0093   5   6   0.0000   0.0000   0.0000   0.0000   0.0000   0.0000   0.00    0.0   0.07
2019/12/01 01:12:00.000  -2267750.6829   5009155.2932   3221295.2408   5   6   0.0000   0.0000   0.0000   0.0000   0.0000   0.0000   0.00    0.0   0.06
2019/12/01 01:12:30.000  -2267750.8871   5009155.5041   3221295.5468   5   6   0.0000   0.0000   0.0000   0.0000   0.0000   0.0000   0.00    0.0   0.15
2019/12/01 01:13:00.000  -2267751.8606   5009156.9323   3221295.8516   5   6   0.0000   0.0000   0.0000   0.0000   0.0000   0.0000   0.00    0.0   0.09
2019/12/01 01:13:30.000  -2267751.5499   5009157.0205   3221296.5077   5   6   0.0000   0.0000   0.0000   0.0000   0.0000   0.0000   0.00    0.0   0.20
2019/12/01 01:14:00.000  -2267751.4021   5009156.7924   3221295.7827   5   6   0.0000   0.0000   0.0000   0.0000   0.0000   0.0000   0.00    0.0   0.09
2019/12/01 01:14:30.000  -2267751.1061   5009155.1057   3221295.2384   5   6   0.0000   0.0000   0.0000   0.0000   0.0000   0.0000   0.00    0.0   0.18
2019/12/01 01:15:00.000  -2267750.8453   5009154.7025   3221295.0285   5   6   0.0000   0.0000   0.0000   0.0000   0.0000   0.0000   0.00    0.0   0.11
2019/12/01 01:15:30.000  -2267750.8846   5009155.1052   3221295.0999   5   6   0.0000   0.0000   0.0000   0.0000   0.0000   0.0000   0.00    0.0   0.13
2019/12/01 01:16:00.000  -2267751.0628   5009155.0451   3221295.1750   5   6   0.0000   0.0000   0.0000   0.0000   0.0000   0.0000   0.00    0.0   0.15
2019/12/01 01:16:30.000  -2267751.1881   5009155.8166   3221295.5341   5   6   0.0000   0.0000   0.0000   0.0000   0.0000   0.0000   0.00    0.0   0.06
2019/12/01 01:17:00.000  -2267751.2086   5009155.9299   3221295.6525   5   6   0.0000   0.0000   0.0000   0.0000   0.0000   0.0000   0.00    0.0   0.03
2019/12/01 01:17:30.000  -2267750.7528   5009154.9310   3221294.8050   5   6   0.0000   0.0000   0.0000   0.0000   0.0000   0.0000   0.00    0.0   0.04
2019/12/01 01:18:00.000  -2267751.2295   5009156.0185   3221295.7680   5   6   0.0000   0.0000   0.0000   0.0000   0.0000   0.0000   0.00    0.0   0.02
2019/12/01 01:18:30.000  -2267751.2161   5009155.4925   3221295.3811   5   6   0.0000   0.0000   0.0000   0.0000   0.0000   0.0000   0.00    0.0   0.05
2019/12/01 01:19:00.000  -2267751.0137   5009155.4239   3221295.5698   5   6   0.0000   0.0000   0.0000   0.0000   0.0000   0.0000   0.00    0.0   0.10
2019/12/01 01:19:30.000  -2267751.4877   5009155.1271   3221295.1936   5   6   0.0000   0.0000   0.0000   0.0000   0.0000   0.0000   0.00    0.0   0.22
2019/12/01 01:20:00.000  -2267750.6606   5009154.1819   3221295.0496   5   6   0.0000   0.0000   0.0000   0.0000   0.0000   0.0000   0.00    0.0   0.20
2019/12/01 01:20:30.000  -2267750.9250   5009155.0884   3221295.6841   5   6   0.0000   0.0000   0.0000   0.0000   0.0000   0.0000   0.00    0.0   0.14
2019/12/01 01:21:00.000  -2267751.1084   5009154.9333   3221294.9033   5   6   0.0000   0.0000   0.0000   0.0000   0.0000   0.0000   0.00    0.0   0.17
2019/12/01 01:21:30.000  -2267751.0540   5009155.3947   3221295.2074   5   6   0.0000   0.0000   0.0000   0.0000   0.0000   0.0000   0.00    0.0   0.16
2019/12/01 01:22:00.000  -2267751.1581   5009155.5414   3221295.4792   5   6   0.0000   0.0000   0.0000   0.0000   0.0000   0.0000   0.00    0.0   0.15
2019/12/01 01:22:30.000  -2267751.6371   5009156.4647   3221295.9367   5   6   0.0000   0.0000   0.0000   0.0000   0.0000   0.0000   0.00    0.0   0.11
2019/12/01 01:23:00.000  -2267751.2468   5009155.7153   3221295.6750   5   6   0.0000   0.0000   0.0000   0.0000   0.0000   0.0000   0.00    0.0   0.07
2019/12/01 01:23:30.000  -2267751.3841   5009155.6873   3221295.1820   5   6   0.0000   0.0000   0.0000   0.0000   0.0000   0.0000   0.00    0.0   0.04
2019/12/01 01:24:00.000  -2267751.5278   5009156.0993   3221295.4932   5   6   0.0000   0.0000   0.0000   0.0000   0.0000   0.0000   0.00    0.0   0.06
2019/12/01 01:24:30.000  -2267751.5091   5009155.8103   3221295.4864   5   6   0.0000   0.0000   0.0000   0.0000   0.0000   0.0000   0.00    0.0   0.00
2019/12/01 01:25:00.000  -2267751.0663   5009155.2878   3221295.1045   5   6   0.0000   0.0000   0.0000   0.0000   0.0000   0.0000   0.00    0.0   0.16
2019/12/01 01:25:30.000  -2267751.3486   5009155.8632   3221295.7217   5   6   0.0000   0.0000   0.0000   0.0000   0.0000   0.0000   0.00    0.0   0.04
2019/12/01 01:26:00.000  -2267751.9862   5009157.0689   3221296.8859   5   6   0.0000   0.0000   0.0000   0.0000   0.0000   0.0000   0.00    0.0   0.13
2019/12/01 01:26:30.000  -2267751.6883   5009156.6067   3221295.9478   5   6   0.0000   0.0000   0.0000   0.0000   0.0000   0.0000   0.00    0.0   0.04
2019/12/01 01:27:00.000  -2267750.5252   5009154.0107   3221294.7866   5   6   0.0000   0.0000   0.0000   0.0000   0.0000   0.0000   0.00    0.0   0.05
2019/12/01 01:27:30.000  -2267751.5606   5009155.6539   3221295.9751   5   6   0.0000   0.0000   0.0000   0.0000   0.0000   0.0000   0.00    0.0   0.08
2019/12/01 01:28:00.000  -2267751.5555   5009155.6104   3221295.6496   5   6   0.0000   0.0000   0.0000   0.0000   0.0000   0.0000   0.00    0.0   0.05
2019/12/01 01:28:30.000  -2267751.9286   5009156.7323   3221296.2442   5   6   0.0000   0.0000   0.0000   0.0000   0.0000   0.0000   0.00    0.0   0.07
2019/12/01 01:29:00.000  -2267751.6966   5009156.0318   3221295.5850   5   6   0.0000   0.0000   0.0000   0.0000   0.0000   0.0000   0.00    0.0   0.05
2019/12/01 01:29:30.000  -2267751.2274   5009155.2591   3221295.0606   5   6   0.0000   0.0000   0.0000   0.0000   0.0000   0.0000   0.00    0.0   0.11
2019/12/01 01:30:00.000  -2267751.7930   5009156.2938   3221296.1436   5   6   0.0000   0.0000   0.0000   0.0000   0.0000   0.0000   0.00    0.0   0.04
2019/12/01 01:30:30.000  -2267751.6842   5009155.8518   3221295.3498   5   6   0.0000   0.0000   0.0000   0.0000   0.0000   0.0000   0.00    0.0   0.13
2019/12/01 01:31:00.000  -2267751.0743   5009155.2473   3221294.9332   5   6   0.0000   0.0000   0.0000   0.0000   0.0000   0.0000   0.00    0.0   0.04
2019/12/01 01:31:30.000  -2267751.7898   5009155.9300   3221295.4241   5   6   0.0000   0.0000   0.0000   0.0000   0.0000   0.0000   0.00    0.0   0.09
2019/12/01 01:32:00.000  -2267751.6614   5009156.1251   3221296.2303   5   6   0.0000   0.0000   0.0000   0.0000   0.0000   0.0000   0.00    0.0   0.08
2019/12/01 01:32:30.000  -2267751.6660   5009156.2176   3221295.5194   5   6   0.0000   0.0000   0.0000   0.0000   0.0000   0.0000   0.00    0.0   0.09
2019/12/01 01:33:00.000  -2267751.0257   5009155.0130   3221294.8077   5   6   0.0000   0.0000   0.0000   0.0000   0.0000   0.0000   0.00    0.0   0.05
2019/12/01 01:33:30.000  -2267752.1820   5009157.3541   3221296.1422   5   6   0.0000   0.0000   0.0000   0.0000   0.0000   0.0000   0.00    0.0   0.14
2019/12/01 01:34:00.000  -2267751.5156   5009155.9112   3221295.5977   5   6   0.0000   0.0000   0.0000   0.0000   0.0000   0.0000   0.00    0.0   0.10
2019/12/01 01:34:30.000  -2267751.0027   5009155.1901   3221294.8189   5   6   0.0000   0.0000   0.0000   0.0000   0.0000   0.0000   0.00    0.0   0.05
2019/12/01 01:35:00.000  -2267751.9609   5009156.4388   3221296.2569   5   6   0.0000   0.0000   0.0000   0.0000   0.0000   0.0000   0.00    0.0   0.10
2019/12/01 01:35:30.000  -2267751.2571   5009155.1521   3221295.7421   5   6   0.0000   0.0000   0.0000   0.0000   0.0000   0.0000   0.00    0.0   0.10
2019/12/01 01:36:00.000  -2267751.2474   5009155.3466   3221295.8767   5   6   0.0000   0.0000   0.0000   0.0000   0.0000   0.0000   0.00    0.0   0.12
2019/12/01 01:36:30.000  -2267752.2097   5009156.6107   3221295.7194   5   6   0.0000   0.0000   0.0000   0.0000   0.0000   0.0000   0.00    0.0   0.03
2019/12/01 01:37:00.000  -2267751.2915   5009155.4593   3221295.0877   5   6   0.0000   0.0000   0.0000   0.0000   0.0000   0.0000   0.00    0.0   0.13
2019/12/01 01:37:30.000  -2267751.7740   5009156.3802   3221296.0791   5   6   0.0000   0.0000   0.0000   0.0000   0.0000   0.0000   0.00    0.0   0.08
2019/12/01 01:38:00.000  -2267751.3335   5009155.5484   3221295.7642   5   6   0.0000   0.0000   0.0000   0.0000   0.0000   0.0000   0.00    0.0   0.12
2019/12/01 01:38:30.000  -2267751.3654   5009155.6861   3221295.8588   5   6   0.0000   0.0000   0.0000   0.0000   0.0000   0.0000   0.00    0.0   0.07
2019/12/01 01:39:00.000  -2267752.3126   5009156.5381   3221295.7983   5   6   0.0000   0.0000   0.0000   0.0000   0.0000   0.0000   0.00    0.0   0.05
2019/12/01 01:39:30.000  -2267751.7090   5009155.5430   3221295.2799   5   6   0.0000   0.0000   0.0000   0.0000   0.0000   0.0000   0.00    0.0   0.07
2019/12/01 01:40:00.000  -2267751.2856   5009155.5240   3221295.6348   5   6   0.0000   0.0000   0.0000   0.0000   0.0000   0.0000   0.00    0.0   0.09
2019/12/01 01:40:30.000  -2267751.6656   5009155.9189   3221296.1552   5   6   0.0000   0.0000   0.0000   0.0000   0.0000   0.0000   0.00    0.0   0.14
2019/12/01 01:41:00.000  -2267751.1818   5009155.0308   3221295.6238   5   6   0.0000   0.0000   0.0000   0.0000   0.0000   0.0000   0.00    0.0   0.24
2019/12/01 01:41:30.000  -2267751.6974   5009155.6585   3221295.2450   5   6   0.0000   0.0000   0.0000   0.0000   0.0000   0.0000   0.00    0.0   0.15
2019/12/01 01:42:00.000  -2267751.2776   5009155.2674   3221295.6273   5   6   0.0000   0.0000   0.0000   0.0000   0.0000   0.0000   0.00    0.0   0.05
2019/12/01 01:42:30.000  -2267751.1897   5009155.0643   3221295.4960   5   6   0.0000   0.0000   0.0000   0.0000   0.0000   0.0000   0.00    0.0   0.08
2019/12/01 01:43:00.000  -2267752.0012   5009156.6170   3221295.7801   5   6   0.0000   0.0000   0.0000   0.0000   0.0000   0.0000   0.00    0.0   0.09
2019/12/01 01:43:30.000  -2267751.9624   5009156.4639   3221295.9788   5   6   0.0000   0.0000   0.0000   0.0000   0.0000   0.0000   0.00    0.0   0.07
2019/12/01 01:44:00.000  -2267751.4007   5009155.9270   3221295.6711   5   6   0.0000   0.0000   0.0000   0.0000   0.0000   0.0000   0.00    0.0   0.08
2019/12/01 01:44:30.000  -2267750.9049   5009155.2129   3221295.5461   5   6   0.0000   0.0000   0.0000   0.0000   0.0000   0.0000   0.00    0.0   0.11
2019/12/01 01:45:00.000  -2267751.2435   5009155.3973   3221295.8818   5   6   0.0000   0.0000   0.0000   0.0000   0.0000   0.0000   0.00    0.0   0.13
2019/12/01 01:45:30.000  -2267752.2636   5009156.9915   3221296.1861   5   6   0.0000   0.0000   0.0000   0.0000   0.0000   0.0000   0.00    0.0   0.09
2019/12/01 01:46:00.000  -2267751.2258   5009155.3365   3221295.6156   5   6   0.0000   0.0000   0.0000   0.0000   0.0000   0.0000   0.00    0.0   0.12
2019/12/01 01:46:30.000  -2267750.4796   5009155.3062   3221294.7108   5   8   0.0000   0.0000   0.0000   0.0000   0.0000   0.0000   0.00    0.0   0.25
2019/12/01 01:47:00.000  -2267751.0617   5009155.6799   3221295.1224   5   8   0.0000   0.0000   0.0000   0.0000   0.0000   0.0000   0.00    0.0   0.14
2019/12/01 01:47:30.000  -2267751.2591   5009155.1279   3221295.5136   5   8   0.0000   0.0000   0.0000   0.0000   0.0000   0.0000   0.00    0.0   0.10
2019/12/01 01:48:00.000  -2267750.5305   5009155.5663   3221295.2677   5   8   0.0000   0.0000   0.0000   0.0000   0.0000   0.0000   0.00    0.0   0.26
2019/12/01 01:48:30.000  -2267750.9885   5009155.2040   3221294.9604   5   8   0.0000   0.0000   0.0000   0.0000   0.0000   0.0000   0.00    0.0   0.16
2019/12/01 01:49:00.000  -2267751.0440   5009155.2471   3221295.3079   5   8   0.0000   0.0000   0.0000   0.0000   0.0000   0.0000   0.00    0.0   0.14
2019/12/01 01:49:30.000  -2267752.0127   5009156.5802   3221296.0898   5   8   0.0000   0.0000   0.0000   0.0000   0.0000   0.0000   0.00    0.0   0.09
2019/12/01 01:50:00.000  -2267751.4409   5009156.2264   3221295.5083   5   8   0.0000   0.0000   0.0000   0.0000   0.0000   0.0000   0.00    0.0   0.09
2019/12/01 01:50:30.000  -2267751.3247   5009156.2740   3221295.6921   5   8   0.0000   0.0000   0.0000   0.0000   0.0000   0.0000   0.00    0.0   0.15
2019/12/01 01:51:00.000  -2267752.1879   5009156.7373   3221295.6891   5   7   0.0000   0.0000   0.0000   0.0000   0.0000   0.0000   0.00    0.0   0.07
2019/12/01 01:51:30.000  -2267751.6335   5009155.8153   3221295.9478   5   7   0.0000   0.0000   0.0000   0.0000   0.0000   0.0000   0.00    0.0   0.11
2019/12/01 01:52:00.000  -2267751.6997   5009155.8995   3221295.3034   5   7   0.0000   0.0000   0.0000   0.0000   0.0000   0.0000   0.00    0.0   0.20
2019/12/01 01:52:30.000  -2267749.5837   5009153.9858   3221295.3360   5   8   0.0000   0.0000   0.0000   0.0000   0.0000   0.0000   0.00    0.0   0.28
2019/12/01 01:53:00.000  -2267750.9766   5009154.9744   3221295.5514   5   7   0.0000   0.0000   0.0000   0.0000   0.0000   0.0000   0.00    0.0   0.18
2019/12/01 01:53:30.000  -2267750.9196   5009155.6844   3221295.1832   5   7   0.0000   0.0000   0.0000   0.0000   0.0000   0.0000   0.00    0.0   0.16
2019/12/01 01:54:00.000  -2267751.6500   5009155.7425   3221295.7918   5   7   0.0000   0.0000   0.0000   0.0000   0.0000   0.0000   0.00    0.0   0.03
2019/12/01 01:54:30.000  -2267752.6589   5009157.4291   3221295.7122   5   7   0.0000   0.0000   0.0000   0.0000   0.0000   0.0000   0.00    0.0   0.22
2019/12/01 01:55:00.000  -2267750.5364   5009154.8630   3221294.6366   5   7   0.0000   0.0000   0.0000   0.0000   0.0000   0.0000   0.00    0.0   0.24
2019/12/01 01:55:30.000  -2267751.9826   5009156.5977   3221295.6074   5   7   0.0000   0.0000   0.0000   0.0000   0.0000   0.0000   0.00    0.0   0.19
2019/12/01 01:56:00.000  -2267751.3067   5009156.1477   3221295.6177   5   8   0.0000   0.0000   0.0000   0.0000   0.0000   0.0000   0.00    0.0   0.10
2019/12/01 01:56:30.000  -2267750.3238   5009155.4926   3221295.7465   5   8   0.0000   0.0000   0.0000   0.0000   0.0000   0.0000   0.00    0.0   0.31
2019/12/01 01:57:00.000  -2267750.1934   5009155.1531   3221295.7892   5   8   0.0000   0.0000   0.0000   0.0000   0.0000   0.0000   0.00    0.0   0.25
2019/12/01 01:57:30.000  -2267750.3645   5009155.4890   3221295.4594   5   8   0.0000   0.0000   0.0000   0.0000   0.0000   0.0000   0.00    0.0   0.29
2019/12/01 01:58:00.000  -2267751.2520   5009154.7900   3221294.4756   5   8   0.0000   0.0000   0.0000   0.0000   0.0000   0.0000   0.00    0.0   0.22
2019/12/01 01:58:30.000  -2267750.7378   5009155.5403   3221294.8993   5   8   0.0000   0.0000   0.0000   0.0000   0.0000   0.0000   0.00    0.0   0.22
2019/12/01 01:59:00.000  -2267750.6795   5009155.1232   3221295.2933   5   8   0.0000   0.0000   0.0000   0.0000   0.0000   0.0000   0.00    0.0   0.12
2019/12/01 01:59:30.000  -2267750.0845   5009155.3229   3221295.5323   5   8   0.0000   0.0000   0.0000   0.0000   0.0000   0.0000   0.00    0.0   0.24
2019/12/01 02:00:00.000  -2267751.1912   5009155.6126   3221295.5157   5   8   0.0000   0.0000   0.0000   0.0000   0.0000   0.0000   0.00    0.0   0.17
2019/12/01 02:00:30.000  -2267750.5803   5009154.3316   3221295.0951   5   8   0.0000   0.0000   0.0000   0.0000   0.0000   0.0000   0.00    0.0   0.21
2019/12/01 02:01:00.000  -2267750.8744   5009155.3261   3221295.9793   5   8   0.0000   0.0000   0.0000   0.0000   0.0000   0.0000   0.00    0.0   0.10
2019/12/01 02:01:30.000  -2267749.8992   5009154.7801   3221294.6485   5   8   0.0000   0.0000   0.0000   0.0000   0.0000   0.0000   0.00    0.0   0.30
2019/12/01 02:02:00.000  -2267750.9884   5009155.3069   3221295.3588   5   8   0.0000   0.0000   0.0000   0.0000   0.0000   0.0000   0.00    0.0   0.23
2019/12/01 02:02:30.000  -2267750.6278   5009154.6962   3221294.9093   5   8   0.0000   0.0000   0.0000   0.0000   0.0000   0.0000   0.00    0.0   0.21
2019/12/01 02:03:00.000  -2267750.6895   5009155.3130   3221295.3580   5   8   0.0000   0.0000   0.0000   0.0000   0.0000   0.0000   0.00    0.0   0.27
2019/12/01 02:03:30.000  -2267750.4076   5009153.9524   3221295.2395   5   8   0.0000   0.0000   0.0000   0.0000   0.0000   0.0000   0.00    0.0   0.20
2019/12/01 02:04:00.000  -2267750.1493   5009154.3143   3221294.7496   5   8   0.0000   0.0000   0.0000   0.0000   0.0000   0.0000   0.00    0.0   0.26
2019/12/01 02:04:30.000  -2267750.9947   5009156.1807   3221295.9982   5   8   0.0000   0.0000   0.0000   0.0000   0.0000   0.0000   0.00    0.0   0.25
2019/12/01 02:05:00.000  -2267751.0102   5009155.3735   3221295.1432   5   8   0.0000   0.0000   0.0000   0.0000   0.0000   0.0000   0.00    0.0   0.23
2019/12/01 02:05:30.000  -2267750.2139   5009154.5144   3221294.5791   5   8   0.0000   0.0000   0.0000   0.0000   0.0000   0.0000   0.00    0.0   0.33
2019/12/01 02:06:00.000  -2267750.8414   5009154.6308   3221294.5929   5   8   0.0000   0.0000   0.0000   0.0000   0.0000   0.0000   0.00    0.0   0.26
2019/12/01 02:06:30.000  -2267750.2863   5009154.6759   3221295.0090   5   8   0.0000   0.0000   0.0000   0.0000   0.0000   0.0000   0.00    0.0   0.17
2019/12/01 02:07:00.000  -2267750.2125   5009153.8163   3221295.0455   5   8   0.0000   0.0000   0.0000   0.0000   0.0000   0.0000   0.00    0.0   0.22
2019/12/01 02:07:30.000  -2267750.6985   5009154.7055   3221294.5610   5   8   0.0000   0.0000   0.0000   0.0000   0.0000   0.0000   0.00    0.0   0.23
2019/12/01 02:08:00.000  -2267750.4901   5009154.8500   3221294.6258   5   8   0.0000   0.0000   0.0000   0.0000   0.0000   0.0000   0.00    0.0   0.29
2019/12/01 02:08:30.000  -2267750.8756   5009154.7366   3221295.0309   5   8   0.0000   0.0000   0.0000   0.0000   0.0000   0.0000   0.00    0.0   0.24
2019/12/01 02:09:00.000  -2267750.5981   5009155.3107   3221294.8210   5   8   0.0000   0.0000   0.0000   0.0000   0.0000   0.0000   0.00    0.0   0.38
2019/12/01 02:09:30.000  -2267751.1003   5009156.2180   3221295.5995   5   8   0.0000   0.0000   0.0000   0.0000   0.0000   0.0000   0.00    0.0   0.28
2019/12/01 02:10:00.000  -2267750.5258   5009154.9932   3221294.7331   5   8   0.0000   0.0000   0.0000   0.0000   0.0000   0.0000   0.00    0.0   0.36
2019/12/01 02:10:30.000  -2267750.3873   5009155.6352   3221294.8610   5   8   0.0000   0.0000   0.0000   0.0000   0.0000   0.0000   0.00    0.0   0.36
2019/12/01 02:11:00.000  -2267750.0619   5009155.2477   3221295.2621   5   8   0.0000   0.0000   0.0000   0.0000   0.0000   0.0000   0.00    0.0   0.40
2019/12/01 02:11:30.000  -2267750.8403   5009155.2045   3221295.0976   5   8   0.0000   0.0000   0.0000   0.0000   0.0000   0.0000   0.00    0.0   0.20
2019/12/01 02:12:00.000  -2267750.4065   5009154.4807   3221294.2818   5   8   0.0000   0.0000   0.0000   0.0000   0.0000   0.0000   0.00    0.0   0.48
2019/12/01 02:12:30.000  -2267749.7631   5009154.6764   3221294.6571   5   8   0.0000   0.0000   0.0000   0.0000   0.0000   0.0000   0.00    0.0   0.42
2019/12/01 02:13:00.000  -2267749.8957   5009154.8063   3221294.5457   5   8   0.0000   0.0000   0.0000   0.0000   0.0000   0.0000   0.00    0.0   0.44
2019/12/01 02:13:30.000  -2267751.1306   5009155.1976   3221294.8376   5   8   0.0000   0.0000   0.0000   0.0000   0.0000   0.0000   0.00    0.0   0.28
2019/12/01 02:14:00.000  -2267750.1264   5009154.9623   3221294.7764   5   8   0.0000   0.0000   0.0000   0.0000   0.0000   0.0000   0.00    0.0   0.42
2019/12/01 02:14:30.000  -2267748.9432   5009153.5587   3221294.8705   5   8   0.0000   0.0000   0.0000   0.0000   0.0000   0.0000   0.00    0.0   0.44
2019/12/01 02:15:00.000  -2267750.7568   5009155.6323   3221295.0342   5   9   0.0000   0.0000   0.0000   0.0000   0.0000   0.0000   0.00    0.0   0.26
2019/12/01 02:15:30.000  -2267750.5795   5009155.5540   3221295.3726   5   9   0.0000   0.0000   0.0000   0.0000   0.0000   0.0000   0.00    0.0   0.47
2019/12/01 02:16:00.000  -2267750.9222   5009155.8054   3221295.1644   5   9   0.0000   0.0000   0.0000   0.0000   0.0000   0.0000   0.00    0.0   0.51
2019/12/01 02:16:30.000  -2267750.2345   5009154.5047   3221295.4619   5   9   0.0000   0.0000   0.0000   0.0000   0.0000   0.0000   0.00    0.0   0.34
2019/12/01 02:17:00.000  -2267750.8716   5009155.2851   3221295.1085   5   9   0.0000   0.0000   0.0000   0.0000   0.0000   0.0000   0.00    0.0   0.38
2019/12/01 02:17:30.000  -2267750.6355   5009155.7391   3221295.1115   5   9   0.0000   0.0000   0.0000   0.0000   0.0000   0.0000   0.00    0.0   0.39
2019/12/01 02:18:00.000  -2267750.0448   5009154.5123   3221295.0092   5   8   0.0000   0.0000   0.0000   0.0000   0.0000   0.0000   0.00    0.0   0.30
2019/12/01 02:18:30.000  -2267751.4513   5009155.6752   3221295.6135   5   8   0.0000   0.0000   0.0000   0.0000   0.0000   0.0000   0.00    0.0   0.53
2019/12/01 02:19:00.000  -2267750.7607   5009154.9709   3221295.1336   5   8   0.0000   0.0000   0.0000   0.0000   0.0000   0.0000   0.00    0.0   0.43
2019/12/01 02:19:30.000  -2267750.4419   5009154.8105   3221295.3323   5   8   0.0000   0.0000   0.0000   0.0000   0.0000   0.0000   0.00    0.0   0.36
2019/12/01 02:20:00.000  -2267750.8798   5009155.3535   3221295.0783   5   8   0.0000   0.0000   0.0000   0.0000   0.0000   0.0000   0.00    0.0   0.51
2019/12/01 02:20:30.000  -2267750.4846   5009154.7613   3221294.9357   5   8   0.0000   0.0000   0.0000   0.0000   0.0000   0.0000   0.00    0.0   0.45
2019/12/01 02:21:00.000  -2267751.3822   5009155.4120   3221295.5117   5   8   0.0000   0.0000   0.0000   0.0000   0.0000   0.0000   0.00    0.0   0.36
2019/12/01 02:21:30.000  -2267750.3024   5009155.0441   3221295.5646   5   8   0.0000   0.0000   0.0000   0.0000   0.0000   0.0000   0.00    0.0   0.33
2019/12/01 02:22:00.000  -2267751.0225   5009155.6322   3221295.1104   5   8   0.0000   0.0000   0.0000   0.0000   0.0000   0.0000   0.00    0.0   0.52
2019/12/01 02:22:30.000  -2267751.0526   5009155.4634   3221295.0554   5   8   0.0000   0.0000   0.0000   0.0000   0.0000   0.0000   0.00    0.0   0.44
2019/12/01 02:23:00.000  -2267750.5195   5009155.1279   3221295.5335   5   8   0.0000   0.0000   0.0000   0.0000   0.0000   0.0000   0.00    0.0   0.50
2019/12/01 02:23:30.000  -2267750.7948   5009155.1365   3221295.4992   5   8   0.0000   0.0000   0.0000   0.0000   0.0000   0.0000   0.00    0.0   0.34
2019/12/01 02:24:00.000  -2267750.8023   5009155.4113   3221295.3093   5   8   0.0000   0.0000   0.0000   0.0000   0.0000   0.0000   0.00    0.0   0.46
2019/12/01 02:24:30.000  -2267750.2138   5009154.7600   3221295.1423   5   8   0.0000   0.0000   0.0000   0.0000   0.0000   0.0000   0.00    0.0   0.45
2019/12/01 02:25:00.000  -2267750.4896   5009155.5402   3221295.1174   5   8   0.0000   0.0000   0.0000   0.0000   0.0000   0.0000   0.00    0.0   0.42
2019/12/01 02:25:30.000  -2267750.6119   5009155.6500   3221295.4582   5   8   0.0000   0.0000   0.0000   0.0000   0.0000   0.0000   0.00    0.0   0.48
2019/12/01 02:26:00.000  -2267751.2458   5009155.6537   3221295.5156   5   8   0.0000   0.0000   0.0000   0.0000   0.0000   0.0000   0.00    0.0   0.45
2019/12/01 02:26:30.000  -2267750.7179   5009155.0342   3221295.1671   5   8   0.0000   0.0000   0.0000   0.0000   0.0000   0.0000   0.00    0.0   0.45
2019/12/01 02:27:00.000  -2267750.6778   5009155.3709   3221295.2736   5   8   0.0000   0.0000   0.0000   0.0000   0.0000   0.0000   0.00    0.0   0.35
2019/12/01 02:27:30.000  -2267750.5258   5009155.1681   3221295.1385   5   8   0.0000   0.0000   0.0000   0.0000   0.0000   0.0000   0.00    0.0   0.43
2019/12/01 02:28:00.000  -2267750.3721   5009155.5137   3221295.5502   5   8   0.0000   0.0000   0.0000   0.0000   0.0000   0.0000   0.00    0.0   0.40
2019/12/01 02:28:30.000  -2267750.1139   5009155.0741   3221295.1643   5   8   0.0000   0.0000   0.0000   0.0000   0.0000   0.0000   0.00    0.0   0.43
2019/12/01 02:29:00.000  -2267750.4374   5009155.2197   3221295.2731   5   8   0.0000   0.0000   0.0000   0.0000   0.0000   0.0000   0.00    0.0   0.39
2019/12/01 02:29:30.000  -2267750.2848   5009154.9926   3221294.9195   5   8   0.0000   0.0000   0.0000   0.0000   0.0000   0.0000   0.00    0.0   0.35
2019/12/01 02:30:00.000  -2267750.7707   5009155.4594   3221295.5498   5   8   0.0000   0.0000   0.0000   0.0000   0.0000   0.0000   0.00    0.0   0.40
2019/12/01 02:30:30.000  -2267749.6559   5009154.3137   3221294.8942   5   8   0.0000   0.0000   0.0000   0.0000   0.0000   0.0000   0.00    0.0   0.42
2019/12/01 02:31:00.000  -2267750.8535   5009155.8849   3221295.6478   5   8   0.0000   0.0000   0.0000   0.0000   0.0000   0.0000   0.00    0.0   0.41
2019/12/01 02:31:30.000  -2267750.1776   5009154.7183   3221295.0816   5   8   0.0000   0.0000   0.0000   0.0000   0.0000   0.0000   0.00    0.0   0.39
2019/12/01 02:32:00.000  -2267750.2142   5009155.3838   3221295.1388   5   8   0.0000   0.0000   0.0000   0.0000   0.0000   0.0000   0.00    0.0   0.40
2019/12/01 02:32:30.000  -2267750.6445   5009155.7265   3221295.4515   5   8   0.0000   0.0000   0.0000   0.0000   0.0000   0.0000   0.00    0.0   0.47
2019/12/01 02:33:00.000  -2267750.2516   5009155.5042   3221295.4512   5   8   0.0000   0.0000   0.0000   0.0000   0.0000   0.0000   0.00    0.0   0.52
2019/12/01 02:33:30.000  -2267750.7208   5009156.0555   3221295.6176   5   8   0.0000   0.0000   0.0000   0.0000   0.0000   0.0000   0.00    0.0   0.40
2019/12/01 02:34:00.000  -2267750.5685   5009155.8887   3221295.8223   5   8   0.0000   0.0000   0.0000   0.0000   0.0000   0.0000   0.00    0.0   0.48
2019/12/01 02:34:30.000  -2267750.5603   5009155.5970   3221295.0548   5   8   0.0000   0.0000   0.0000   0.0000   0.0000   0.0000   0.00    0.0   0.51
2019/12/01 02:35:00.000  -2267751.0629   5009156.3641   3221295.7925   5   8   0.0000   0.0000   0.0000   0.0000   0.0000   0.0000   0.00    0.0   0.48
2019/12/01 02:35:30.000  -2267750.3098   5009155.1551   3221295.3215   5   8   0.0000   0.0000   0.0000   0.0000   0.0000   0.0000   0.00    0.0   0.43
2019/12/01 02:36:00.000  -2267751.1071   5009155.7791   3221295.5161   5   8   0.0000   0.0000   0.0000   0.0000   0.0000   0.0000   0.00    0.0   0.42
2019/12/01 02:36:30.000  -2267751.0879   5009156.1450   3221295.6176   5   8   0.0000   0.0000   0.0000   0.0000   0.0000   0.0000   0.00    0.0   0.46
2019/12/01 02:37:00.000  -2267750.8324   5009156.7133   3221295.9037   5   8   0.0000   0.0000   0.0000   0.0000   0.0000   0.0000   0.00    0.0   0.38
2019/12/01 02:37:30.000  -2267750.4685   5009156.4753   3221295.7756   5   8   0.0000   0.0000   0.0000   0.0000   0.0000   0.0000   0.00    0.0   0.61
2019/12/01 02:38:00.000  -2267750.3929   5009155.2790   3221295.3313   5   8   0.0000   0.0000   0.0000   0.0000   0.0000   0.0000   0.00    0.0   0.50
2019/12/01 02:38:30.000  -2267751.0139   5009156.6910   3221296.0787   5   8   0.0000   0.0000   0.0000   0.0000   0.0000   0.0000   0.00    0.0   0.53
2019/12/01 02:39:00.000  -2267750.1004   5009155.2741   3221295.4073   5   8   0.0000   0.0000   0.0000   0.0000   0.0000   0.0000   0.00    0.0   0.43
2019/12/01 02:39:30.000  -2267750.6500   5009155.3681   3221295.3532   5   8   0.0000   0.0000   0.0000   0.0000   0.0000   0.0000   0.00    0.0   0.40
2019/12/01 02:40:00.000  -2267750.3708   5009156.3886   3221296.1760   5   8   0.0000   0.0000   0.0000   0.0000   0.0000   0.0000   0.00    0.0   0.51
2019/12/01 02:40:30.000  -2267750.6649   5009156.0286   3221295.9033   5   8   0.0000   0.0000   0.0000   0.0000   0.0000   0.0000   0.00    0.0   0.52
2019/12/01 02:41:00.000  -2267751.0144   5009156.8663   3221296.2797   5   8   0.0000   0.0000   0.0000   0.0000   0.0000   0.0000   0.00    0.0   0.47
2019/12/01 02:41:30.000  -2267751.0326   5009156.3766   3221295.8112   5   8   0.0000   0.0000   0.0000   0.0000   0.0000   0.0000   0.00    0.0   0.48
2019/12/01 02:42:00.000  -2267750.6617   5009156.3751   3221295.9297   5   8   0.0000   0.0000   0.0000   0.0000   0.0000   0.0000   0.00    0.0   0.36
2019/12/01 02:42:30.000  -2267750.4369   5009156.4245   3221296.3272   5   8   0.0000   0.0000   0.0000   0.0000   0.0000   0.0000   0.00    0.0   0.43
2019/12/01 02:43:00.000  -2267750.8093   5009155.9853   3221295.9218   5   8   0.0000   0.0000   0.0000   0.0000   0.0000   0.0000   0.00    0.0   0.49
2019/12/01 02:43:30.000  -2267750.2184   5009156.5364   3221295.7310   5   8   0.0000   0.0000   0.0000   0.0000   0.0000   0.0000   0.00    0.0   0.42
2019/12/01 02:44:00.000  -2267751.3200   5009156.3760   3221295.8400   5   8   0.0000   0.0000   0.0000   0.0000   0.0000   0.0000   0.00    0.0   0.48
2019/12/01 02:44:30.000  -2267750.9518   5009157.0415   3221295.8453   5   8   0.0000   0.0000   0.0000   0.0000   0.0000   0.0000   0.00    0.0   0.49
2019/12/01 02:45:00.000  -2267749.7889   5009155.9564   3221295.9002   5   8   0.0000   0.0000   0.0000   0.0000   0.0000   0.0000   0.00    0.0   0.37
2019/12/01 02:45:30.000  -2267750.6719   5009156.0935   3221295.6034   5   8   0.0000   0.0000   0.0000   0.0000   0.0000   0.0000   0.00    0.0   0.44
2019/12/01 02:46:00.000  -2267750.5353   5009155.3855   3221295.7825   5   8   0.0000   0.0000   0.0000   0.0000   0.0000   0.0000   0.00    0.0   0.44
2019/12/01 02:46:30.000  -2267750.6730   5009156.2594   3221296.1145   5   8   0.0000   0.0000   0.0000   0.0000   0.0000   0.0000   0.00    0.0   0.39
2019/12/01 02:47:00.000  -2267750.4391   5009155.3010   3221295.6494   5   7   0.0000   0.0000   0.0000   0.0000   0.0000   0.0000   0.00    0.0   0.49
2019/12/01 02:47:30.000  -2267750.6773   5009155.8571   3221295.5668   5   7   0.0000   0.0000   0.0000   0.0000   0.0000   0.0000   0.00    0.0   0.49
2019/12/01 02:48:00.000  -2267750.3380   5009155.3454   3221295.0545   5   7   0.0000   0.0000   0.0000   0.0000   0.0000   0.0000   0.00    0.0   0.36
2019/12/01 02:48:30.000  -2267750.2380   5009155.2694   3221295.2248   5   7   0.0000   0.0000   0.0000   0.0000   0.0000   0.0000   0.00    0.0   0.48
2019/12/01 02:49:00.000  -2267750.0487   5009155.3878   3221295.3864   5   7   0.0000   0.0000   0.0000   0.0000   0.0000   0.0000   0.00    0.0   0.52
2019/12/01 02:49:30.000  -2267750.5882   5009156.0277   3221295.8389   5   7   0.0000   0.0000   0.0000   0.0000   0.0000   0.0000   0.00    0.0   0.37
2019/12/01 02:50:00.000  -2267750.9783   5009156.3111   3221295.9815   5   7   0.0000   0.0000   0.0000   0.0000   0.0000   0.0000   0.00    0.0   0.48
2019/12/01 02:50:30.000  -2267751.3531   5009157.4581   3221296.7801   5   7   0.0000   0.0000   0.0000   0.0000   0.0000   0.0000   0.00    0.0   0.65
2019/12/01 02:51:00.000  -2267751.1696   5009156.5040   3221295.7763   5   7   0.0000   0.0000   0.0000   0.0000   0.0000   0.0000   0.00    0.0   0.52
2019/12/01 02:51:30.000  -2267751.2363   5009157.0618   3221296.2245   5   7   0.0000   0.0000   0.0000   0.0000   0.0000   0.0000   0.00    0.0   0.59
2019/12/01 02:52:00.000  -2267750.7247   5009155.7313   3221295.7162   5   7   0.0000   0.0000   0.0000   0.0000   0.0000   0.0000   0.00    0.0   0.49
2019/12/01 02:52:30.000  -2267750.4825   5009156.1361   3221296.2535   5   7   0.0000   0.0000   0.0000   0.0000   0.0000   0.0000   0.00    0.0   0.68
2019/12/01 02:53:00.000  -2267750.7306   5009156.1377   3221296.0084   5   7   0.0000   0.0000   0.0000   0.0000   0.0000   0.0000   0.00    0.0   0.53
2019/12/01 02:53:30.000  -2267751.6536   5009157.6188   3221296.8805   5   7   0.0000   0.0000   0.0000   0.0000   0.0000   0.0000   0.00    0.0   0.49
2019/12/01 02:54:00.000  -2267750.8174   5009157.2446   3221296.7440   5   7   0.0000   0.0000   0.0000   0.0000   0.0000   0.0000   0.00    0.0   0.54
2019/12/01 02:54:30.000  -2267750.4459   5009156.1103   3221296.0437   5   7   0.0000   0.0000   0.0000   0.0000   0.0000   0.0000   0.00    0.0   0.54
2019/12/01 02:55:00.000  -2267751.2946   5009156.3472   3221296.2906   5   7   0.0000   0.0000   0.0000   0.0000   0.0000   0.0000   0.00    0.0   0.45
2019/12/01 02:55:30.000  -2267751.2212   5009156.8883   3221296.3181   5   7   0.0000   0.0000   0.0000   0.0000   0.0000   0.0000   0.00    0.0   0.38
2019/12/01 02:56:00.000  -2267750.9937   5009156.1417   3221295.9299   5   7   0.0000   0.0000   0.0000   0.0000   0.0000   0.0000   0.00    0.0   0.43
2019/12/01 02:56:30.000  -2267750.5709   5009156.8942   3221296.4712   5   7   0.0000   0.0000   0.0000   0.0000   0.0000   0.0000   0.00    0.0   0.43
2019/12/01 02:57:00.000  -2267751.2240   5009157.0369   3221296.4806   5   7   0.0000   0.0000   0.0000   0.0000   0.0000   0.0000   0.00    0.0   0.43
2019/12/01 02:57:30.000  -2267751.0764   5009157.0119   3221296.3856   5   7   0.0000   0.0000   0.0000   0.0000   0.0000   0.0000   0.00    0.0   0.54
2019/12/01 02:58:00.000  -2267750.3710   5009155.8914   3221295.9784   5   7   0.0000   0.0000   0.0000   0.0000   0.0000   0.0000   0.00    0.0   0.50
2019/12/01 02:58:30.000  -2267750.9369   5009156.1236   3221296.2780   5   7   0.0000   0.0000   0.0000   0.0000   0.0000   0.0000   0.00    0.0   0.41
2019/12/01 02:59:00.000  -2267751.2908   5009156.8499   3221296.5715   5   7   0.0000   0.0000   0.0000   0.0000   0.0000   0.0000   0.00    0.0   0.43
2019/12/01 02:59:30.000  -2267750.7739   5009156.1263   3221296.1981   5   7   0.0000   0.0000   0.0000   0.0000   0.0000   0.0000   0.00    0.0   0.52
2019/12/01 03:00:00.000  -2267751.0893   5009156.2087   3221295.9418   5   7   0.0000   0.0000   0.0000   0.0000   0.0000   0.0000   0.00    0.0   0.32
2019/12/01 03:00:30.000  -2267750.9370   5009156.2298   3221295.2656   5   7   0.0000   0.0000   0.0000   0.0000   0.0000   0.0000   0.00    0.0   0.36
2019/12/01 03:01:00.000  -2267751.5341   5009156.9697   3221295.7883   5   7   0.0000   0.0000   0.0000   0.0000   0.0000   0.0000   0.00    0.0   0.44
2019/12/01 03:01:30.000  -2267750.8527   5009156.7870   3221295.9970   5   7   0.0000   0.0000   0.0000   0.0000   0.0000   0.0000   0.00    0.0   0.42
2019/12/01 03:02:00.000  -2267751.0933   5009156.8685   3221296.2126   5   7   0.0000   0.0000   0.0000   0.0000   0.0000   0.0000   0.00    0.0   0.50
2019/12/01 03:02:30.000  -2267750.9803   5009156.6486   3221295.8660   5   7   0.0000   0.0000   0.0000   0.0000   0.0000   0.0000   0.00    0.0   0.46
2019/12/01 03:03:00.000  -2267751.7945   5009158.0626   3221296.4237   5   7   0.0000   0.0000   0.0000   0.0000   0.0000   0.0000   0.00    0.0   0.35
2019/12/01 03:03:30.000  -2267751.3257   5009157.5775   3221296.2777   5   7   0.0000   0.0000   0.0000   0.0000   0.0000   0.0000   0.00    0.0   0.44
2019/12/01 03:04:00.000  -2267751.7207   5009157.6948   3221296.5364   5   7   0.0000   0.0000   0.0000   0.0000   0.0000   0.0000   0.00    0.0   0.44
2019/12/01 03:04:30.000  -2267751.3596   5009157.2833   3221296.4624   5   7   0.0000   0.0000   0.0000   0.0000   0.0000   0.0000   0.00    0.0   0.37
2019/12/01 03:05:00.000  -2267751.5500   5009157.0402   3221296.1595   5   7   0.0000   0.0000   0.0000   0.0000   0.0000   0.0000   0.00    0.0   0.34
2019/12/01 03:05:30.000  -2267751.4953   5009157.6720   3221296.2771   5   7   0.0000   0.0000   0.0000   0.0000   0.0000   0.0000   0.00    0.0   0.32
2019/12/01 03:06:00.000  -2267751.6110   5009157.5463   3221296.4699   5   7   0.0000   0.0000   0.0000   0.0000   0.0000   0.0000   0.00    0.0   0.37
2019/12/01 03:06:30.000  -2267751.4115   5009156.6619   3221296.1231   5   7   0.0000   0.0000   0.0000   0.0000   0.0000   0.0000   0.00    0.0   0.36
2019/12/01 03:07:00.000  -2267751.8497   5009158.6265   3221297.1544   5   7   0.0000   0.0000   0.0000   0.0000   0.0000   0.0000   0.00    0.0   0.44
2019/12/01 03:07:30.000  -2267751.5638   5009157.6326   3221296.2391   5   7   0.0000   0.0000   0.0000   0.0000   0.0000   0.0000   0.00    0.0   0.36
2019/12/01 03:08:00.000  -2267751.9156   5009157.1735   3221296.2450   5   7   0.0000   0.0000   0.0000   0.0000   0.0000   0.0000   0.00    0.0   0.35
2019/12/01 03:08:30.000  -2267751.7111   5009157.5464   3221296.5893   5   7   0.0000   0.0000   0.0000   0.0000   0.0000   0.0000   0.00    0.0   0.38
2019/12/01 03:09:00.000  -2267751.0264   5009156.8535   3221295.6997   5   7   0.0000   0.0000   0.0000   0.0000   0.0000   0.0000   0.00    0.0   0.33
2019/12/01 03:09:30.000  -2267751.2392   5009157.1730   3221296.3964   5   7   0.0000   0.0000   0.0000   0.0000   0.0000   0.0000   0.00    0.0   0.29
2019/12/01 03:10:00.000  -2267751.2243   5009156.8617   3221296.3173   5   7   0.0000   0.0000   0.0000   0.0000   0.0000   0.0000   0.00    0.0   0.33
2019/12/01 03:10:30.000  -2267750.8683   5009156.7393   3221296.1042   5   7   0.0000   0.0000   0.0000   0.0000   0.0000   0.0000   0.00    0.0   0.33
2019/12/01 03:11:00.000  -2267751.8952   5009157.8238   3221296.5494   5   7   0.0000   0.0000   0.0000   0.0000   0.0000   0.0000   0.00    0.0   0.34
2019/12/01 03:11:30.000  -2267751.9954   5009158.2530   3221296.4751   5   7   0.0000   0.0000   0.0000   0.0000   0.0000   0.0000   0.00    0.0   0.35
2019/12/01 03:12:00.000  -2267751.9863   5009157.7419   3221296.4860   5   7   0.0000   0.0000   0.0000   0.0000   0.0000   0.0000   0.00    0.0   0.38
2019/12/01 03:12:30.000  -2267751.8145   5009157.5748   3221296.5117   5   7   0.0000   0.0000   0.0000   0.0000   0.0000   0.0000   0.00    0.0   0.33
2019/12/01 03:13:00.000  -2267751.6229   5009157.8378   3221296.6330   5   7   0.0000   0.0000   0.0000   0.0000   0.0000   0.0000   0.00    0.0   0.28
2019/12/01 03:13:30.000  -2267751.4645   5009157.5954   3221296.6881   5   7   0.0000   0.0000   0.0000   0.0000   0.0000   0.0000   0.00    0.0   0.46
2019/12/01 03:14:00.000  -2267751.7185   5009157.0437   3221296.4432   5   7   0.0000   0.0000   0.0000   0.0000   0.0000   0.0000   0.00    0.0   0.37
2019/12/01 03:14:30.000  -2267751.3315   5009157.2550   3221296.4182   5   7   0.0000   0.0000   0.0000   0.0000   0.0000   0.0000   0.00    0.0   0.40
2019/12/01 03:15:00.000  -2267751.6989   5009157.2471   3221296.2880   5   7   0.0000   0.0000   0.0000   0.0000   0.0000   0.0000   0.00    0.0   0.29
2019/12/01 03:15:30.000  -2267751.6498   5009157.3666   3221296.4250   5   7   0.0000   0.0000   0.0000   0.0000   0.0000   0.0000   0.00    0.0   0.39
2019/12/01 03:16:00.000  -2267751.2947   5009156.9183   3221296.4257   5   7   0.0000   0.0000   0.0000   0.0000   0.0000   0.0000   0.00    0.0   0.36
